{"19": {"-79": [{"loc": "Cayman Islands", "name": "Little Cayman Island", "url": "http://www.cleardarksky.com/c/LtCymnCYcsk.gif", "lon": -79.965828, "lat": 19.707202, "id": "LtCymnCY"}]}, "24": {"-80": [{"loc": "Florida", "name": "Coral Key Village Observatory", "url": "http://www.cleardarksky.com/c/CrlKyVObFLcsk.gif", "lon": -80.8894, "lat": 24.78812, "id": "CrlKyVObFL"}], "-75": [{"loc": "Cat Island", "name": "Cat Island (South)", "url": "http://www.cleardarksky.com/c/CtsldBHcsk.gif", "lon": -75.357199, "lat": 24.155682, "id": "CtsldBH"}], "-82": [{"loc": "Florida", "name": "Dry Tortugas National Park", "url": "http://www.cleardarksky.com/c/DrTrgsNPFLcsk.gif", "lon": -82.873199, "lat": 24.628532, "id": "DrTrgsNPFL"}], "-81": [{"loc": "Florida", "name": "Winter Star Party", "url": "http://www.cleardarksky.com/c/Winter_Star_Partycsk.gif", "lon": -81.3095, "lat": 24.6496, "id": "Winter_Star_Party"}, {"loc": "Florida", "name": "Crane Point Nature Center", "url": "http://www.cleardarksky.com/c/CrnPtNCFLcsk.gif", "lon": -81.0773333333, "lat": 24.7225, "id": "CrnPtNCFL"}, {"loc": "Florida", "name": "Key West", "url": "http://www.cleardarksky.com/c/KyWstFLcsk.gif", "lon": -81.78, "lat": 24.55, "id": "KyWstFL"}, {"loc": "Florida", "name": "Summerland Key", "url": "http://www.cleardarksky.com/c/SmrlndKyFLcsk.gif", "lon": -81.4442166667, "lat": 24.6575166667, "id": "SmrlndKyFL"}, {"loc": "Florida", "name": "Little Knockem Down Observatory", "url": "http://www.cleardarksky.com/c/LtKnDnObFLcsk.gif", "lon": -81.459712, "lat": 24.692957, "id": "LtKnDnObFL"}]}, "25": {"-80": [{"loc": "Florida", "name": "The Stocker AstroScience Center", "url": "http://www.cleardarksky.com/c/StckrObFLcsk.gif", "lon": -80.372458, "lat": 25.75789, "id": "StckrObFL"}, {"loc": "Florida", "name": "Miami", "url": "http://www.cleardarksky.com/c/MiamiFLcsk.gif", "lon": -80.194, "lat": 25.774, "id": "MiamiFL"}, {"loc": "Florida", "name": "Bill Sadowski Park", "url": "http://www.cleardarksky.com/c/BSdwPkFLcsk.gif", "lon": -80.318116, "lat": 25.608694, "id": "BSdwPkFL"}, {"loc": "Florida", "name": "Flamingo", "url": "http://www.cleardarksky.com/c/FlmgFLcsk.gif", "lon": -80.92422, "lat": 25.140793, "id": "FlmgFL"}, {"loc": "Florida", "name": "Belen Observatory", "url": "http://www.cleardarksky.com/c/BnJsObFLcsk.gif", "lon": -80.402144, "lat": 25.762822, "id": "BnJsObFL"}, {"loc": "Florida", "name": "D'Auria Observatory", "url": "http://www.cleardarksky.com/c/DAuriaObFLcsk.gif", "lon": -80.542289, "lat": 25.548756, "id": "DAuriaObFL"}, {"loc": "Florida", "name": "Mahogany Hammock", "url": "http://www.cleardarksky.com/c/MhgyHmkFLcsk.gif", "lon": -80.83191, "lat": 25.32382, "id": "MhgyHmkFL"}, {"loc": "Florida", "name": "Kendale Observatory", "url": "http://www.cleardarksky.com/c/KndlObFLcsk.gif", "lon": -80.4299, "lat": 25.6949, "id": "KndlObFL"}, {"loc": "Florida", "name": "Malhotra Observatory", "url": "http://www.cleardarksky.com/c/MhtrObFLcsk.gif", "lon": -80.12975, "lat": 25.834556, "id": "MhtrObFL"}, {"loc": "Florida", "name": "Heaven Sent Observatory", "url": "http://www.cleardarksky.com/c/HvnStObFLcsk.gif", "lon": -80.5345, "lat": 25.41145, "id": "HvnStObFL"}, {"loc": "Florida", "name": "GreenWay Lakes Observatory", "url": "http://www.cleardarksky.com/c/GrnWyLObFLcsk.gif", "lon": -80.3941666667, "lat": 25.7444444444, "id": "GrnWyLObFL"}], "-77": [{"loc": "New Providence", "name": "Nassau", "url": "http://www.cleardarksky.com/c/NsNPBHcsk.gif", "lon": -77.35, "lat": 25.083, "id": "NsNPBH"}], "-81": [{"loc": "Florida", "name": "Seagrape Drive", "url": "http://www.cleardarksky.com/c/SgrpDrFLcsk.gif", "lon": -81.326511, "lat": 25.894783, "id": "SgrpDrFL"}, {"loc": "Florida", "name": "Kirby Storter Roadside Park", "url": "http://www.cleardarksky.com/c/KrbyRpFLcsk.gif", "lon": -81.1639916667, "lat": 25.8686666667, "id": "KrbyRpFL"}, {"loc": "Florida", "name": "Caxambas Observatory", "url": "http://www.cleardarksky.com/c/CxmbsObFLcsk.gif", "lon": -81.7, "lat": 25.9166666667, "id": "CxmbsObFL"}]}, "26": {"-82": [{"loc": "Florida", "name": "Lemon Bay Park", "url": "http://www.cleardarksky.com/c/LmnByPkFLcsk.gif", "lon": -82.374013, "lat": 26.972009, "id": "LmnByPkFL"}, {"loc": "Florida", "name": "Joyce Observatory 2", "url": "http://www.cleardarksky.com/c/JycObFLcsk.gif", "lon": -82.086429, "lat": 26.899492, "id": "JycObFL"}, {"loc": "Florida", "name": "Pineland Observatory", "url": "http://www.cleardarksky.com/c/PnLndObFLcsk.gif", "lon": -82.1162796021, "lat": 26.6103230848, "id": "PnLndObFL"}, {"loc": "Florida", "name": "Useppa Island Observatory", "url": "http://www.cleardarksky.com/c/UsppIsObFLcsk.gif", "lon": -82.213333, "lat": 26.66, "id": "UsppIsObFL"}], "-81": [{"loc": "Florida", "name": "Fort Myers", "url": "http://www.cleardarksky.com/c/FtMyrsFLcsk.gif", "lon": -81.873, "lat": 26.64, "id": "FtMyrsFL"}, {"loc": "Florida", "name": "Fakahatchee Strand Preserve", "url": "http://www.cleardarksky.com/c/FkhtchSPFLcsk.gif", "lon": -81.345, "lat": 26.154, "id": "FkhtchSPFL"}, {"loc": "Florida", "name": "Naples", "url": "http://www.cleardarksky.com/c/NaplesFLcsk.gif", "lon": -81.795, "lat": 26.142, "id": "NaplesFL"}, {"loc": "Florida", "name": "Area 63", "url": "http://www.cleardarksky.com/c/Area63FLcsk.gif", "lon": -81.072806, "lat": 26.169775, "id": "Area63FL"}, {"loc": "Florida", "name": "Fort Myers Beach", "url": "http://www.cleardarksky.com/c/FtMyrBFLcsk.gif", "lon": -81.948, "lat": 26.452, "id": "FtMyrBFL"}, {"loc": "Florida", "name": "Wagner Observatory", "url": "http://www.cleardarksky.com/c/WgnrObFLcsk.gif", "lon": -81.799, "lat": 26.317, "id": "WgnrObFL"}, {"loc": "Florida", "name": "Fisheating Creek Campgrounds", "url": "http://www.cleardarksky.com/c/MFSGFLcsk.gif", "lon": -81.3166666667, "lat": 26.9333333333, "id": "MFSGFL"}, {"loc": "Florida", "name": "LaBelle Astronomical Observatory", "url": "http://www.cleardarksky.com/c/LBllObFLcsk.gif", "lon": -81.423814, "lat": 26.759447, "id": "LBllObFL"}, {"loc": "Florida", "name": "Finch Observatory", "url": "http://www.cleardarksky.com/c/FnchOb2FLcsk.gif", "lon": -81.659315, "lat": 26.28219, "id": "FnchOb2FL"}], "-80": [{"loc": "Florida", "name": "Jupiter", "url": "http://www.cleardarksky.com/c/JupiterFLcsk.gif", "lon": -80.094, "lat": 26.934, "id": "JupiterFL"}, {"loc": "Florida", "name": "Boca Raton", "url": "http://www.cleardarksky.com/c/Boca_Ratoncsk.gif", "lon": -80.083, "lat": 26.358, "id": "Boca_Raton"}, {"loc": "Florida", "name": "Fox Observatory", "url": "http://www.cleardarksky.com/c/FoxAsObFLcsk.gif", "lon": -80.3613888889, "lat": 26.1288888889, "id": "FoxAsObFL"}, {"loc": "Florida", "name": "Weston", "url": "http://www.cleardarksky.com/c/WstnFLcsk.gif", "lon": -80.4075, "lat": 26.1283333333, "id": "WstnFL"}, {"loc": "Florida", "name": "West Palm Beach", "url": "http://www.cleardarksky.com/c/WPalmBchFLcsk.gif", "lon": -80.054, "lat": 26.715, "id": "WPalmBchFL"}, {"loc": "Florida", "name": "Fort Lauderdale", "url": "http://www.cleardarksky.com/c/FtLauderFLcsk.gif", "lon": -80.144, "lat": 26.122, "id": "FtLauderFL"}, {"loc": "Florida", "name": "Waid Observatory (Margate)", "url": "http://www.cleardarksky.com/c/WdObFLcsk.gif", "lon": -80.207, "lat": 26.244, "id": "WdObFL"}, {"loc": "Florida", "name": "West Delray Regional Park", "url": "http://www.cleardarksky.com/c/WsDryPkFLcsk.gif", "lon": -80.21808, "lat": 26.45715, "id": "WsDryPkFL"}, {"loc": "Florida", "name": "Harold A Campbell Public Use Area", "url": "http://www.cleardarksky.com/c/HrdCmpFLcsk.gif", "lon": -80.62802, "lat": 26.338568, "id": "HrdCmpFL"}, {"loc": "Florida", "name": "Pine Glades Natural Area", "url": "http://www.cleardarksky.com/c/PnGldsNAFLcsk.gif", "lon": -80.2569, "lat": 26.940883, "id": "PnGldsNAFL"}, {"loc": "Florida", "name": "Pompano Beach", "url": "http://www.cleardarksky.com/c/PmpBchFLcsk.gif", "lon": -80.1248, "lat": 26.2379, "id": "PmpBchFL"}, {"loc": "Florida", "name": "Starbrite Observatory", "url": "http://www.cleardarksky.com/c/StrBrtObFLcsk.gif", "lon": -80.28, "lat": 26.08, "id": "StrBrtObFL"}, {"loc": "Florida", "name": "Ivan's Observatory", "url": "http://www.cleardarksky.com/c/IvnsObFLcsk.gif", "lon": -80.1823578, "lat": 26.2995625, "id": "IvnsObFL"}, {"loc": "Florida", "name": "LAT26 RAO", "url": "http://www.cleardarksky.com/c/LAT26ObFLcsk.gif", "lon": -80.2402, "lat": 26.1092, "id": "LAT26ObFL"}], "-78": [{"loc": "Grand Bahama", "name": "Freeport", "url": "http://www.cleardarksky.com/c/FrPrtBAcsk.gif", "lon": -78.7, "lat": 26.533, "id": "FrPrtBA"}], "-99": [{"loc": "Texas", "name": "Falcon State Park", "url": "http://www.cleardarksky.com/c/FlcSPTXcsk.gif", "lon": -99.142373, "lat": 26.579705, "id": "FlcSPTX"}], "-98": [{"loc": "Texas", "name": "Bentsen-Rio Grande Valley State Park", "url": "http://www.cleardarksky.com/c/BntsnRGrndVSPTXcsk.gif", "lon": -98.381888, "lat": 26.186987, "id": "BntsnRGrndVSPTX"}, {"loc": "Texas", "name": "Edinburg", "url": "http://www.cleardarksky.com/c/EdnbrgTXcsk.gif", "lon": -98.163, "lat": 26.301, "id": "EdnbrgTX"}], "-97": [{"loc": "Texas", "name": "Port Isabel Lighthouse State Historic Site", "url": "http://www.cleardarksky.com/c/PrtIsblLghthsHSTXcsk.gif", "lon": -97.207293, "lat": 26.077918, "id": "PrtIsblLghthsHSTX"}, {"loc": "Texas", "name": "Estero Llano Grande State Park", "url": "http://www.cleardarksky.com/c/EstrLlnGrndSPTXcsk.gif", "lon": -97.956518, "lat": 26.126411, "id": "EstrLlnGrndSPTX"}, {"loc": "Texas", "name": "Laguna Atascosa Wildlife Refuge", "url": "http://www.cleardarksky.com/c/LgAtscWFTXcsk.gif", "lon": -97.351785, "lat": 26.191411, "id": "LgAtscWFTX"}]}, "27": {"-82": [{"loc": "Florida", "name": "Sarasota", "url": "http://www.cleardarksky.com/c/SrstFLcsk.gif", "lon": -82.5307, "lat": 27.3364, "id": "SrstFL"}, {"loc": "Florida", "name": "Saint Petersburg", "url": "http://www.cleardarksky.com/c/SptrsbrgFLcsk.gif", "lon": -82.679, "lat": 27.771, "id": "SptrsbrgFL"}, {"loc": "Florida", "name": "Brandon", "url": "http://www.cleardarksky.com/c/BrndnFLcsk.gif", "lon": -82.286, "lat": 27.938, "id": "BrndnFL"}, {"loc": "Florida", "name": "Largo", "url": "http://www.cleardarksky.com/c/LargoFLcsk.gif", "lon": -82.788, "lat": 27.909, "id": "LargoFL"}, {"loc": "Florida", "name": "Tampa", "url": "http://www.cleardarksky.com/c/TampaFLcsk.gif", "lon": -82.459, "lat": 27.947, "id": "TampaFL"}, {"loc": "Florida", "name": "HRH Observatory", "url": "http://www.cleardarksky.com/c/HRHObFLcsk.gif", "lon": -82.4776833333, "lat": 27.3064833333, "id": "HRHObFL"}, {"loc": "Florida", "name": "Myakka City", "url": "http://www.cleardarksky.com/c/MykkCyFLcsk.gif", "lon": -82.162, "lat": 27.349, "id": "MykkCyFL"}, {"loc": "Florida", "name": "Alafia River State Park", "url": "http://www.cleardarksky.com/c/AlfRvrSPFLcsk.gif", "lon": -82.1438888889, "lat": 27.8108333333, "id": "AlfRvrSPFL"}, {"loc": "Florida", "name": "Parish", "url": "http://www.cleardarksky.com/c/PrshFLcsk.gif", "lon": -82.444064, "lat": 27.552386, "id": "PrshFL"}, {"loc": "Florida", "name": "De Soto National Memorial", "url": "http://www.cleardarksky.com/c/DSNMFLcsk.gif", "lon": -82.643519, "lat": 27.521669, "id": "DSNMFL"}, {"loc": "Florida", "name": "Windy Hill 5 Observatory", "url": "http://www.cleardarksky.com/c/WdyH5ObFLcsk.gif", "lon": -82.63976, "lat": 27.47823, "id": "WdyH5ObFL"}, {"loc": "Florida", "name": "Jigg's Landing Park", "url": "http://www.cleardarksky.com/c/JgsLdPkcsk.gif", "lon": -82.481744, "lat": 27.432178, "id": "JgsLdPk"}, {"loc": "Florida", "name": "Duette Park", "url": "http://www.cleardarksky.com/c/DttPkFLcsk.gif", "lon": -82.110775, "lat": 27.535403, "id": "DttPkFL"}, {"loc": "Florida", "name": "Sun City Center", "url": "http://www.cleardarksky.com/c/SnCtyCnFLcsk.gif", "lon": -82.35278, "lat": 27.699564, "id": "SnCtyCnFL"}, {"loc": "Florida", "name": "Yalta Observatory", "url": "http://www.cleardarksky.com/c/YltOBFLcsk.gif", "lon": -82.236, "lat": 27.044, "id": "YltOBFL"}, {"loc": "Florida", "name": "John's Observatory", "url": "http://www.cleardarksky.com/c/JhnsObFLcsk.gif", "lon": -82.463897, "lat": 27.536737, "id": "JhnsObFL"}, {"loc": "Florida", "name": "Scott's Observatory", "url": "http://www.cleardarksky.com/c/ScttsObFLcsk.gif", "lon": -82.4833333333, "lat": 27.55, "id": "ScttsObFL"}, {"loc": "Florida", "name": "STAR", "url": "http://www.cleardarksky.com/c/STAR9FLcsk.gif", "lon": -82.276, "lat": 27.983, "id": "STAR9FL"}, {"loc": "Florida", "name": "Hooker's Prairie", "url": "http://www.cleardarksky.com/c/HkrsPrFLcsk.gif", "lon": -82.1354666667, "lat": 27.7043472222, "id": "HkrsPrFL"}], "-81": [{"loc": "Florida", "name": "Kissimmee Prairie Preserve State Park", "url": "http://www.cleardarksky.com/c/KPPFLcsk.gif", "lon": -81.043757, "lat": 27.582535, "id": "KPPFL"}, {"loc": "Florida", "name": "Venus", "url": "http://www.cleardarksky.com/c/VenusFLcsk.gif", "lon": -81.357, "lat": 27.067, "id": "VenusFL"}, {"loc": "Florida", "name": "Riverwoods Field Laboratory", "url": "http://www.cleardarksky.com/c/RvwdLbFLcsk.gif", "lon": -81.110945, "lat": 27.383276, "id": "RvwdLbFL"}, {"loc": "Florida", "name": "Lake Kissimmee State Park", "url": "http://www.cleardarksky.com/c/LkKssSPFLcsk.gif", "lon": -81.3531991, "lat": 27.9433488, "id": "LkKssSPFL"}, {"loc": "Florida", "name": "Avon Park Bombing Range", "url": "http://www.cleardarksky.com/c/AvnPrkBRFLcsk.gif", "lon": -81.1667, "lat": 27.5833, "id": "AvnPrkBRFL"}, {"loc": "Florida", "name": "Cargeena 2 Astronomy", "url": "http://www.cleardarksky.com/c/Crgn2AstrFLcsk.gif", "lon": -81.5329605, "lat": 27.59595, "id": "Crgn2AstrFL"}, {"loc": "Florida", "name": "Hardee Lakes Park", "url": "http://www.cleardarksky.com/c/HrdLkPkFLcsk.gif", "lon": -81.9656833333, "lat": 27.6128583333, "id": "HrdLkPkFL"}, {"loc": "Florida", "name": "Highlands Hammock State Park", "url": "http://www.cleardarksky.com/c/HghHmkSPFLcsk.gif", "lon": -81.5396, "lat": 27.471, "id": "HghHmkSPFL"}, {"loc": "Florida", "name": "Robert Clyde Observatory", "url": "http://www.cleardarksky.com/c/RtCydObFLcsk.gif", "lon": -81.44475, "lat": 27.4303611111, "id": "RtCydObFL"}, {"loc": "Florida", "name": "Hale Observatory", "url": "http://www.cleardarksky.com/c/HlObFLcsk.gif", "lon": -81.49702, "lat": 27.59372, "id": "HlObFL"}, {"loc": "Florida", "name": "Brogdon Observatory", "url": "http://www.cleardarksky.com/c/BrgdnObFLcsk.gif", "lon": -81.028893, "lat": 27.304761, "id": "BrgdnObFL"}, {"loc": "Florida", "name": "Deep Sky Observatory", "url": "http://www.cleardarksky.com/c/DpSkObFLcsk.gif", "lon": -81.531583, "lat": 27.527972, "id": "DpSkObFL"}, {"loc": "Florida", "name": "Lake Buffum", "url": "http://www.cleardarksky.com/c/LkBffmFLcsk.gif", "lon": -81.666, "lat": 27.799, "id": "LkBffmFL"}], "-80": [{"loc": "Florida", "name": "St. Sebastian River Preserve State Park", "url": "http://www.cleardarksky.com/c/StSebSPFLcsk.gif", "lon": -80.558324, "lat": 27.829247, "id": "StSebSPFL"}, {"loc": "Florida", "name": "Everglades Observatory", "url": "http://www.cleardarksky.com/c/EvrgldsObFLcsk.gif", "lon": -80.881122, "lat": 27.136323, "id": "EvrgldsObFL"}, {"loc": "Florida", "name": "Vero Beach", "url": "http://www.cleardarksky.com/c/VrBchFLcsk.gif", "lon": -80.39, "lat": 27.638, "id": "VrBchFL"}, {"loc": "Florida", "name": "Bluefield Ranch", "url": "http://www.cleardarksky.com/c/BlfdSPFLcsk.gif", "lon": -80.62764, "lat": 27.23704, "id": "BlfdSPFL"}], "-110": [{"loc": "Sonora", "name": "Observatorio Villa de Miramar", "url": "http://www.cleardarksky.com/c/ObVMmrMXcsk.gif", "lon": -110.9339, "lat": 27.917, "id": "ObVMmrMX"}], "-99": [{"loc": "Texas", "name": "Lake Casa Blanca International State Park", "url": "http://www.cleardarksky.com/c/LCsBlncIntrntlSPTXcsk.gif", "lon": -99.440528, "lat": 27.545412, "id": "LCsBlncIntrntlSPTX"}, {"loc": "Texas", "name": "Laredo", "url": "http://www.cleardarksky.com/c/LrdoTXcsk.gif", "lon": -99.507, "lat": 27.506, "id": "LrdoTX"}], "-98": [{"loc": "Texas", "name": "Lacopita Ranch", "url": "http://www.cleardarksky.com/c/LcptRnchTXcsk.gif", "lon": -98.2092, "lat": 27.6547, "id": "LcptRnchTX"}], "-97": [{"loc": "Texas", "name": "Corpus Christi", "url": "http://www.cleardarksky.com/c/CrpsChrTXcsk.gif", "lon": -97.396, "lat": 27.8, "id": "CrpsChrTX"}, {"loc": "Texas", "name": "Mustang Island State Park", "url": "http://www.cleardarksky.com/c/MsgIsTXcsk.gif", "lon": -97.1754, "lat": 27.6672, "id": "MsgIsTX"}, {"loc": "Texas", "name": "Lipantitlan State Historic Site", "url": "http://www.cleardarksky.com/c/LpnttlnHSTXcsk.gif", "lon": -97.817753, "lat": 27.964682, "id": "LpnttlnHSTX"}, {"loc": "Texas", "name": "TAMUK Observatory", "url": "http://www.cleardarksky.com/c/TAMUKObTXcsk.gif", "lon": -97.8805, "lat": 27.5241388889, "id": "TAMUKObTX"}, {"loc": "Texas", "name": "Whitten Observatory", "url": "http://www.cleardarksky.com/c/WhttnObTXcsk.gif", "lon": -97.6497222222, "lat": 27.8591666667, "id": "WhttnObTX"}]}, "28": {"-96": [{"loc": "Texas", "name": "Goose Island State Park", "url": "http://www.cleardarksky.com/c/GsIslndSPTXcsk.gif", "lon": -96.98838, "lat": 28.128064, "id": "GsIslndSPTX"}, {"loc": "Texas", "name": "Mole Hill Observatory", "url": "http://www.cleardarksky.com/c/MoleHObTXcsk.gif", "lon": -96.63149, "lat": 28.40815, "id": "MoleHObTX"}, {"loc": "Texas", "name": "Lake Texana State Park", "url": "http://www.cleardarksky.com/c/LkTxnSPcsk.gif", "lon": -96.548012, "lat": 28.956465, "id": "LkTxnSP"}], "-95": [{"loc": "Texas", "name": "Matagorda Bay Nature Park", "url": "http://www.cleardarksky.com/c/MtgrNPTXcsk.gif", "lon": -95.978721, "lat": 28.598928, "id": "MtgrNPTX"}], "-82": [{"loc": "Florida", "name": "Honeymoon Island State Park", "url": "http://www.cleardarksky.com/c/HnymnFLcsk.gif", "lon": -82.82935, "lat": 28.0638, "id": "HnymnFL"}, {"loc": "Florida", "name": "Green Swamp Wildlife Management Area", "url": "http://www.cleardarksky.com/c/GrnsmpWMAFLcsk.gif", "lon": -82.0383333333, "lat": 28.3563888889, "id": "GrnsmpWMAFL"}, {"loc": "Florida", "name": "Withlacoochee River Park", "url": "http://www.cleardarksky.com/c/WthccRPFLcsk.gif", "lon": -82.12395, "lat": 28.3437166667, "id": "WthccRPFL"}, {"loc": "Florida", "name": "Brooksville", "url": "http://www.cleardarksky.com/c/BrooksFLcsk.gif", "lon": -82.388, "lat": 28.555, "id": "BrooksFL"}, {"loc": "Florida", "name": "Hudson", "url": "http://www.cleardarksky.com/c/HdsnFLcsk.gif", "lon": -82.694, "lat": 28.364, "id": "HdsnFL"}, {"loc": "Florida", "name": "Carrollwood", "url": "http://www.cleardarksky.com/c/CrrlwdCAcsk.gif", "lon": -82.541628, "lat": 28.090551, "id": "CrrlwdCA"}, {"loc": "Florida", "name": "Bhills Observatory", "url": "http://www.cleardarksky.com/c/BHObFLcsk.gif", "lon": -82.4572633, "lat": 28.9158619, "id": "BHObFL"}, {"loc": "Florida", "name": "DeepSkyshed Observatory", "url": "http://www.cleardarksky.com/c/DpSySdObFLcsk.gif", "lon": -82.66536, "lat": 28.308121, "id": "DpSySdObFL"}, {"loc": "Florida", "name": "Holiday", "url": "http://www.cleardarksky.com/c/HldyFLcsk.gif", "lon": -82.723604, "lat": 28.197092, "id": "HldyFL"}, {"loc": "Florida", "name": "Geddy's Blue Room Observatory", "url": "http://www.cleardarksky.com/c/HmssFLcsk.gif", "lon": -82.615, "lat": 28.781, "id": "HmssFL"}, {"loc": "Florida", "name": "Cooke Observatory", "url": "http://www.cleardarksky.com/c/CkkObNEcsk.gif", "lon": -82.546356, "lat": 28.586481, "id": "CkkObNE"}, {"loc": "Florida", "name": "Lazy 8 Ranch Observatory", "url": "http://www.cleardarksky.com/c/Lzy8Obcsk.gif", "lon": -82.205037, "lat": 28.869521, "id": "Lzy8Ob"}, {"loc": "Florida", "name": "Galactic Stone Observatory", "url": "http://www.cleardarksky.com/c/GlctSnObFLcsk.gif", "lon": -82.4467, "lat": 28.125908, "id": "GlctSnObFL"}, {"loc": "Florida", "name": "Temple Terrace", "url": "http://www.cleardarksky.com/c/TmplTrrcFLcsk.gif", "lon": -82.389, "lat": 28.035, "id": "TmplTrrcFL"}, {"loc": "Florida", "name": "Rooftop Oasis Observatory", "url": "http://www.cleardarksky.com/c/RfTpOsObFLcsk.gif", "lon": -82.70938, "lat": 28.27088, "id": "RfTpOsObFL"}, {"loc": "Florida", "name": "Broken Oak Observatory", "url": "http://www.cleardarksky.com/c/BrkOkObFLcsk.gif", "lon": -82.28745, "lat": 28.4967, "id": "BrkOkObFL"}, {"loc": "Florida", "name": "Conner Preserve", "url": "http://www.cleardarksky.com/c/CnrPrvFLcsk.gif", "lon": -82.456566, "lat": 28.31623, "id": "CnrPrvFL"}], "-81": [{"loc": "Florida", "name": "Bar J Observatory", "url": "http://www.cleardarksky.com/c/BJObFLcsk.gif", "lon": -81.1252777778, "lat": 28.9155555556, "id": "BJObFL"}, {"loc": "Florida", "name": "Wayne's Backyard Observatory", "url": "http://www.cleardarksky.com/c/WynBkOBFLcsk.gif", "lon": -81.733129, "lat": 28.086036, "id": "WynBkOBFL"}, {"loc": "Florida", "name": "Orlando", "url": "http://www.cleardarksky.com/c/OrlndFLcsk.gif", "lon": -81.379, "lat": 28.538, "id": "OrlndFL"}, {"loc": "Florida", "name": "Robinson Observatory", "url": "http://www.cleardarksky.com/c/RbnsnObFLcsk.gif", "lon": -81.21, "lat": 28.62, "id": "RbnsnObFL"}, {"loc": "Florida", "name": "Lakeland", "url": "http://www.cleardarksky.com/c/LklndFLcsk.gif", "lon": -81.95, "lat": 28.039, "id": "LklndFL"}, {"loc": "Florida", "name": "Harmony", "url": "http://www.cleardarksky.com/c/HrmnyFLcsk.gif", "lon": -81.15, "lat": 28.2, "id": "HrmnyFL"}, {"loc": "Florida", "name": "Sanford", "url": "http://www.cleardarksky.com/c/SnfrdFLcsk.gif", "lon": -81.2535, "lat": 28.8055, "id": "SnfrdFL"}, {"loc": "Florida", "name": "Rolling Hills Observatory", "url": "http://www.cleardarksky.com/c/RllngHlObFLcsk.gif", "lon": -81.725, "lat": 28.557, "id": "RllngHlObFL"}, {"loc": "Florida", "name": "Ambersweet Observatory", "url": "http://www.cleardarksky.com/c/AbrswtObFLcsk.gif", "lon": -81.683333, "lat": 28.916667, "id": "AbrswtObFL"}, {"loc": "Florida", "name": "Kissimmee", "url": "http://www.cleardarksky.com/c/KssmFlcsk.gif", "lon": -81.408, "lat": 28.292, "id": "KssmFl"}, {"loc": "Florida", "name": "Seminole State College Star Range", "url": "http://www.cleardarksky.com/c/SmnlCSrFLcsk.gif", "lon": -81.13, "lat": 28.79, "id": "SmnlCSrFL"}, {"loc": "Florida", "name": "Deltona", "url": "http://www.cleardarksky.com/c/DltnaFLcsk.gif", "lon": -81.249, "lat": 28.9222, "id": "DltnaFL"}, {"loc": "Florida", "name": "Winter Haven", "url": "http://www.cleardarksky.com/c/WntrHvnFLcsk.gif", "lon": -81.733, "lat": 28.022, "id": "WntrHvnFL"}, {"loc": "Florida", "name": "Kissimmee Park Observatory", "url": "http://www.cleardarksky.com/c/KssmmObFLcsk.gif", "lon": -81.368584, "lat": 28.208766, "id": "KssmmObFL"}, {"loc": "Florida", "name": "Krause's Observatory", "url": "http://www.cleardarksky.com/c/KrsObFLcsk.gif", "lon": -81.888511, "lat": 28.965256, "id": "KrsObFL"}, {"loc": "Florida", "name": "Phil's Observatory at Sanctuary", "url": "http://www.cleardarksky.com/c/PhObFLcsk.gif", "lon": -81.9013, "lat": 28.9957, "id": "PhObFL"}, {"loc": "Florida", "name": "Deer Creek RV Golf Resort", "url": "http://www.cleardarksky.com/c/DrCrlRVFLcsk.gif", "lon": -81.63242, "lat": 28.218925, "id": "DrCrlRVFL"}, {"loc": "Florida", "name": "F.D.A.T. Veteran's Point", "url": "http://www.cleardarksky.com/c/FDATFLcsk.gif", "lon": -81.234956, "lat": 28.844474, "id": "FDATFL"}], "-80": [{"loc": "Florida", "name": "Biolab Boat Ramp", "url": "http://www.cleardarksky.com/c/BioBrmpFLcsk.gif", "lon": -80.721068, "lat": 28.706251, "id": "BioBrmpFL"}, {"loc": "Florida", "name": "Titusville", "url": "http://www.cleardarksky.com/c/TitusFLcsk.gif", "lon": -80.808, "lat": 28.612, "id": "TitusFL"}, {"loc": "Florida", "name": "Melbourne", "url": "http://www.cleardarksky.com/c/MlbrnFLcsk.gif", "lon": -80.608, "lat": 28.083, "id": "MlbrnFL"}, {"loc": "Florida", "name": "Bethune Beach", "url": "http://www.cleardarksky.com/c/BthnBchFLcsk.gif", "lon": -80.83592, "lat": 28.946092, "id": "BthnBchFL"}, {"loc": "Florida", "name": "EFSC Planetarium and Observatory", "url": "http://www.cleardarksky.com/c/BCCObFLcsk.gif", "lon": -80.7622, "lat": 28.3847, "id": "BCCObFL"}, {"loc": "Florida", "name": "Palm Bay", "url": "http://www.cleardarksky.com/c/PmByFLcsk.gif", "lon": -80.5887, "lat": 28.0345, "id": "PmByFL"}, {"loc": "Florida", "name": "Lake Ahern Observatory", "url": "http://www.cleardarksky.com/c/LkAhObFLcsk.gif", "lon": -80.752318, "lat": 28.23935, "id": "LkAhObFL"}, {"loc": "Florida", "name": "Lone Palm Observatory", "url": "http://www.cleardarksky.com/c/LnPlmObFLcsk.gif", "lon": -80.752, "lat": 28.172, "id": "LnPlmObFL"}], "-106": [{"loc": "Chihuahua", "name": "Chihuahua", "url": "http://www.cleardarksky.com/c/ChhhMXcsk.gif", "lon": -106.083, "lat": 28.633, "id": "ChhhMX"}], "-105": [{"loc": "Chihuahua", "name": "Ciudad Delicias", "url": "http://www.cleardarksky.com/c/DlcsMXcsk.gif", "lon": -105.467, "lat": 28.217, "id": "DlcsMX"}], "-99": [{"loc": "Texas", "name": "Red Rock Ranch", "url": "http://www.cleardarksky.com/c/RdRckRnchTXcsk.gif", "lon": -99.529696, "lat": 28.994178, "id": "RdRckRnchTX"}], "-98": [{"loc": "Texas", "name": "Escondido Ranch", "url": "http://www.cleardarksky.com/c/EscnR9TXcsk.gif", "lon": -98.75, "lat": 28.0833333333, "id": "EscnR9TX"}, {"loc": "Texas", "name": "Butler Ranch", "url": "http://www.cleardarksky.com/c/BtlrRnTXcsk.gif", "lon": -98.101944, "lat": 28.855833, "id": "BtlrRnTX"}, {"loc": "Texas", "name": "Choke Canyon State Park - Calliham Unit", "url": "http://www.cleardarksky.com/c/ChkCSPCllhmTXcsk.gif", "lon": -98.34845, "lat": 28.473589, "id": "ChkCSPCllhmTX"}, {"loc": "Texas", "name": "Choke Canyon State Park - South Shore Unit", "url": "http://www.cleardarksky.com/c/ChkCSPSShrTXcsk.gif", "lon": -98.250059, "lat": 28.467641, "id": "ChkCSPSShrTX"}], "-97": [{"loc": "Texas", "name": "Lake Corpus Christi State Park", "url": "http://www.cleardarksky.com/c/LCrpsChrstSPTXcsk.gif", "lon": -97.873889, "lat": 28.063249, "id": "LCrpsChrstSPTX"}, {"loc": "Texas", "name": "Goliad State Park & Historic Site", "url": "http://www.cleardarksky.com/c/GldSPHSTXcsk.gif", "lon": -97.385362, "lat": 28.656494, "id": "GldSPHSTX"}, {"loc": "Texas", "name": "Victoria", "url": "http://www.cleardarksky.com/c/VctraTXcsk.gif", "lon": -97.003, "lat": 28.805, "id": "VctraTX"}, {"loc": "Texas", "name": "Mineral Ranch", "url": "http://www.cleardarksky.com/c/MnrlRchTXcsk.gif", "lon": -97.8769833333, "lat": 28.51635, "id": "MnrlRchTX"}, {"loc": "Texas", "name": "McMurtrey Observing Site", "url": "http://www.cleardarksky.com/c/McMrtyTXcsk.gif", "lon": -97.038611, "lat": 28.08, "id": "McMrtyTX"}, {"loc": "Texas", "name": "Mission Rosario State Historic Site", "url": "http://www.cleardarksky.com/c/MssRsrHSTXcsk.gif", "lon": -97.438888, "lat": 28.644374, "id": "MssRsrHSTX"}, {"loc": "Texas", "name": "Zaragoza Birthplace State Historic Site", "url": "http://www.cleardarksky.com/c/ZrgzBrthplcHSTXcsk.gif", "lon": -97.383136, "lat": 28.647329, "id": "ZrgzBrthplcHSTX"}, {"loc": "Texas", "name": "Coleto Creek Park and Reservoir", "url": "http://www.cleardarksky.com/c/CltCrkPKTXcsk.gif", "lon": -97.174003, "lat": 28.719647, "id": "CltCrkPKTX"}]}, "29": {"-96": [{"loc": "Texas", "name": "Columbus", "url": "http://www.cleardarksky.com/c/OakRhTXcsk.gif", "lon": -96.6770166667, "lat": 29.5618333333, "id": "OakRhTX"}, {"loc": "Texas", "name": "Stephen F. Austin State Park", "url": "http://www.cleardarksky.com/c/StphnFAstnSPTXcsk.gif", "lon": -96.110549, "lat": 29.818394, "id": "StphnFAstnSPTX"}, {"loc": "Texas", "name": "Schaefer Observatory", "url": "http://www.cleardarksky.com/c/SchfrObTXcsk.gif", "lon": -96.898347, "lat": 29.674945, "id": "SchfrObTX"}, {"loc": "Texas", "name": "Monument Hill & Kreische Brewery State Historic Site", "url": "http://www.cleardarksky.com/c/MmntHllKrschBrwryHSTXcsk.gif", "lon": -96.875351, "lat": 29.888953, "id": "MmntHllKrschBrwryHSTX"}, {"loc": "Texas", "name": "The Last Stand Observatory", "url": "http://www.cleardarksky.com/c/LstStndObTXcsk.gif", "lon": -96.8570718, "lat": 29.2353357, "id": "LstStndObTX"}, {"loc": "Texas", "name": "Oak Tree Observatory", "url": "http://www.cleardarksky.com/c/OkTreObTXcsk.gif", "lon": -96.0119444444, "lat": 29.9575, "id": "OkTreObTX"}], "-95": [{"loc": "Texas", "name": "Houston", "url": "http://www.cleardarksky.com/c/Houstoncsk.gif", "lon": -95.363, "lat": 29.763, "id": "Houston"}, {"loc": "Texas", "name": "George Observatory", "url": "http://www.cleardarksky.com/c/GeorgeObTXcsk.gif", "lon": -95.593611, "lat": 29.375, "id": "GeorgeObTX"}, {"loc": "Texas", "name": "Katy", "url": "http://www.cleardarksky.com/c/KatyTXcsk.gif", "lon": -95.824, "lat": 29.786, "id": "KatyTX"}, {"loc": "Texas", "name": "Space Center Houston", "url": "http://www.cleardarksky.com/c/SpcCtrHstTXcsk.gif", "lon": -95.099, "lat": 29.553139, "id": "SpcCtrHstTX"}, {"loc": "Texas", "name": "Humble ISD Astronomical Observatory", "url": "http://www.cleardarksky.com/c/HISDObTXcsk.gif", "lon": -95.262, "lat": 29.968, "id": "HISDObTX"}, {"loc": "Texas", "name": "Brazos Bend State Park", "url": "http://www.cleardarksky.com/c/BrzsBndSPTXcsk.gif", "lon": -95.594658, "lat": 29.380798, "id": "BrzsBndSPTX"}, {"loc": "Texas", "name": "Hepcat Sky Observatory", "url": "http://www.cleardarksky.com/c/HpCtSkyObTXcsk.gif", "lon": -95.65, "lat": 29.98, "id": "HpCtSkyObTX"}, {"loc": "Texas", "name": "Pearland", "url": "http://www.cleardarksky.com/c/PrndTXcsk.gif", "lon": -95.286, "lat": 29.563, "id": "PrndTX"}, {"loc": "Texas", "name": "Brazosport Planetarium", "url": "http://www.cleardarksky.com/c/BrzPrNCTXcsk.gif", "lon": -95.4094444444, "lat": 29.0519444444, "id": "BrzPrNCTX"}, {"loc": "Texas", "name": "Battleship Texas State Historic Site", "url": "http://www.cleardarksky.com/c/BttlshpHSTXcsk.gif", "lon": -95.08974, "lat": 29.755968, "id": "BttlshpHSTX"}, {"loc": "Texas", "name": "Sheldon Lake State Park & Environmental Learning Center", "url": "http://www.cleardarksky.com/c/ShldLSPEnvrmntlLCTXcsk.gif", "lon": -95.168196, "lat": 29.868455, "id": "ShldLSPEnvrmntlLCTX"}, {"loc": "Texas", "name": "San Jacinto Battleground State Historic Site", "url": "http://www.cleardarksky.com/c/SnJcntBgHSTXcsk.gif", "lon": -95.077949, "lat": 29.738206, "id": "SnJcntBgHSTX"}, {"loc": "Texas", "name": "Santa Fe (TX)", "url": "http://www.cleardarksky.com/c/StFeTXcsk.gif", "lon": -95.106, "lat": 29.378, "id": "StFeTX"}, {"loc": "Texas", "name": "Changstars Observatory", "url": "http://www.cleardarksky.com/c/ChngSObTXcsk.gif", "lon": -95.369104, "lat": 29.542793, "id": "ChngSObTX"}], "-94": [{"loc": "Texas", "name": "Galveston Island State Park", "url": "http://www.cleardarksky.com/c/GlvtSPTXcsk.gif", "lon": -94.965048, "lat": 29.198175, "id": "GlvtSPTX"}, {"loc": "Texas", "name": "Baytown", "url": "http://www.cleardarksky.com/c/BytwnTXcsk.gif", "lon": -94.977, "lat": 29.735, "id": "BytwnTX"}, {"loc": "Texas", "name": "Anahuac Wildlife Refuge", "url": "http://www.cleardarksky.com/c/AnhcWRTXcsk.gif", "lon": -94.5272, "lat": 29.6005, "id": "AnhcWRTX"}, {"loc": "Texas", "name": "Sea Rim State Park", "url": "http://www.cleardarksky.com/c/SRmSPTXcsk.gif", "lon": -94.025391, "lat": 29.679497, "id": "SRmSPTX"}, {"loc": "Texas", "name": "Crystal Beach", "url": "http://www.cleardarksky.com/c/CrystlBchTXcsk.gif", "lon": -94.639, "lat": 29.457, "id": "CrystlBchTX"}, {"loc": "Texas", "name": "Moody Gardens", "url": "http://www.cleardarksky.com/c/MoodyGTXcsk.gif", "lon": -94.85344, "lat": 29.27633, "id": "MoodyGTX"}], "-91": [{"loc": "Louisiana", "name": "Jeanerette", "url": "http://www.cleardarksky.com/c/JeanrttLAcsk.gif", "lon": -91.663, "lat": 29.911, "id": "JeanrttLA"}], "-90": [{"loc": "Louisiana", "name": "New Orleans", "url": "http://www.cleardarksky.com/c/NewOrlLAcsk.gif", "lon": -90.075, "lat": 29.954, "id": "NewOrlLA"}, {"loc": "Louisiana", "name": "Houma", "url": "http://www.cleardarksky.com/c/HoumaLAcsk.gif", "lon": -90.719, "lat": 29.596, "id": "HoumaLA"}, {"loc": "Louisiana", "name": "Gretna City Park Observatory", "url": "http://www.cleardarksky.com/c/GretnaObLAcsk.gif", "lon": -90.0482646, "lat": 29.8956797, "id": "GretnaObLA"}, {"loc": "Louisiana", "name": "Galliano", "url": "http://www.cleardarksky.com/c/GllnoLAcsk.gif", "lon": -90.2993, "lat": 29.4422, "id": "GllnoLA"}, {"loc": "Louisiana", "name": "St George Observatory", "url": "http://www.cleardarksky.com/c/StGrgObLAcsk.gif", "lon": -90.7766666667, "lat": 29.7308333333, "id": "StGrgObLA"}], "-85": [{"loc": "Florida", "name": "Indian Pass Penninsula", "url": "http://www.cleardarksky.com/c/IndnPssFLcsk.gif", "lon": -85.2414, "lat": 29.6765, "id": "IndnPssFL"}, {"loc": "Florida", "name": "White City", "url": "http://www.cleardarksky.com/c/WhtCtyFLcsk.gif", "lon": -85.22, "lat": 29.884, "id": "WhtCtyFL"}], "-84": [{"loc": "Florida", "name": "Panacea", "url": "http://www.cleardarksky.com/c/Pnc1FLcsk.gif", "lon": -84.4225, "lat": 29.99111, "id": "Pnc1FL"}, {"loc": "Florida", "name": "Boca Observatory", "url": "http://www.cleardarksky.com/c/BcaObFLcsk.gif", "lon": -84.9, "lat": 29.735, "id": "BcaObFL"}], "-83": [{"loc": "Florida", "name": "Cedar Key", "url": "http://www.cleardarksky.com/c/CedarKeyFLcsk.gif", "lon": -83.04, "lat": 29.16, "id": "CedarKeyFL"}, {"loc": "Florida", "name": "Shired Island", "url": "http://www.cleardarksky.com/c/ShrdIslFLcsk.gif", "lon": -83.2055, "lat": 29.3988666667, "id": "ShrdIslFL"}, {"loc": "Florida", "name": "Keaton Beach", "url": "http://www.cleardarksky.com/c/KtnBchFLcsk.gif", "lon": -83.595, "lat": 29.824, "id": "KtnBchFL"}, {"loc": "Florida", "name": "Suwannee Skies Observatory", "url": "http://www.cleardarksky.com/c/SwnnSkObFLcsk.gif", "lon": -83.03373, "lat": 29.66103, "id": "SwnnSkObFL"}], "-82": [{"loc": "Florida", "name": "Chiefland Astronomy Village", "url": "http://www.cleardarksky.com/c/ChieflandFLcsk.gif", "lon": -82.86065, "lat": 29.408148, "id": "ChieflandFL"}, {"loc": "Florida", "name": "Ocala", "url": "http://www.cleardarksky.com/c/OclaFLcsk.gif", "lon": -82.14, "lat": 29.187, "id": "OclaFL"}, {"loc": "Florida", "name": "UF Campus Teaching Observatory", "url": "http://www.cleardarksky.com/c/UFCTOFLcsk.gif", "lon": -82.3333333333, "lat": 29.6166666667, "id": "UFCTOFL"}, {"loc": "Florida", "name": "Gainesville (FL)", "url": "http://www.cleardarksky.com/c/GnsvFLcsk.gif", "lon": -82.3248, "lat": 29.6516, "id": "GnsvFL"}, {"loc": "Florida", "name": "Newberry Star Park", "url": "http://www.cleardarksky.com/c/NbrySPFLcsk.gif", "lon": -82.601073, "lat": 29.673046, "id": "NbrySPFL"}, {"loc": "Florida", "name": "AST@RHO", "url": "http://www.cleardarksky.com/c/RosmHObFLcsk.gif", "lon": -82.5869444444, "lat": 29.4011111111, "id": "RosmHObFL"}, {"loc": "Florida", "name": "Belleview", "url": "http://www.cleardarksky.com/c/BllvwFLcsk.gif", "lon": -82.063, "lat": 29.055, "id": "BllvwFL"}, {"loc": "Florida", "name": "The D'Auria's Ocala Star Observatory", "url": "http://www.cleardarksky.com/c/DrOcObFLcsk.gif", "lon": -82.1742, "lat": 29.0276, "id": "DrOcObFL"}, {"loc": "Florida", "name": "Star Dogged Moon Observatory", "url": "http://www.cleardarksky.com/c/StrDgdObFLcsk.gif", "lon": -82.078262, "lat": 29.775602, "id": "StrDgdObFL"}, {"loc": "Florida", "name": "Foxtrotter Observatory", "url": "http://www.cleardarksky.com/c/FxtrttrObFLcsk.gif", "lon": -82.2844444444, "lat": 29.3380555556, "id": "FxtrttrObFL"}], "-81": [{"loc": "Florida", "name": "Daytona Beach", "url": "http://www.cleardarksky.com/c/DytnaBchFLcsk.gif", "lon": -81.023, "lat": 29.211, "id": "DytnaBchFL"}, {"loc": "Florida", "name": "Palm Coast", "url": "http://www.cleardarksky.com/c/PlmCstFLcsk.gif", "lon": -81.173293, "lat": 29.570121, "id": "PlmCstFL"}, {"loc": "Florida", "name": "Redding Observatory", "url": "http://www.cleardarksky.com/c/Dlnd2ObFLcsk.gif", "lon": -81.344169, "lat": 29.111144, "id": "Dlnd2ObFL"}, {"loc": "Florida", "name": "Astor", "url": "http://www.cleardarksky.com/c/AstrFLcsk.gif", "lon": -81.526, "lat": 29.162, "id": "AstrFL"}, {"loc": "Florida", "name": "Ellen Observatory", "url": "http://www.cleardarksky.com/c/EllnObFLcsk.gif", "lon": -81.3, "lat": 29.004, "id": "EllnObFL"}], "-110": [{"loc": "Sonora", "name": "Observatorio Ernesto Juarez Davis", "url": "http://www.cleardarksky.com/c/RldMlnObMXcsk.gif", "lon": -110.760555556, "lat": 29.2175, "id": "RldMlnObMX"}, {"loc": "Sonora", "name": "Observatorio Carl Sagan en el Campus Hermosillo", "url": "http://www.cleardarksky.com/c/CrSgnHrmMXcsk.gif", "lon": -110.933333333, "lat": 29.0666666667, "id": "CrSgnHrmMX"}, {"loc": "Sonora", "name": "Observatorio Las Palmas", "url": "http://www.cleardarksky.com/c/ObLsPlmMXcsk.gif", "lon": -110.933333333, "lat": 29.0666666667, "id": "ObLsPlmMX"}, {"loc": "Sonora", "name": "Observatorio del Centro Ecologico de Sonora", "url": "http://www.cleardarksky.com/c/ObCnrEcSnMXcsk.gif", "lon": -110.933333333, "lat": 29.0666666667, "id": "ObCnrEcSnMX"}, {"loc": "Sonora", "name": 